Country,City,AccentCity,Region,Population,Latitude,Longitude
us,abanda,Abanda,AL,,33.1008333,-85.5297222
us,abbeville,Abbeville,AL,,31.5716667,-85.2505556
us,abbot springs,Abbot Springs,AL,,33.3608333,-86.4816667
us,abel,Abel,AL,,33.5486111,-85.7125000
us,abercrombie,Abercrombie,AL,,32.8486111,-87.1650000
us,aberfoil,Aberfoil,AL,,32.0702778,-85.6877778
us,abernant,Abernant,AL,,33.2902778,-87.1980556
us,abernathy,Abernathy,AL,,33.6505556,-85.4075000